[
	{
		"objectID": 101422,
		"name": "Town",
		"address": "348 Main Street",
		"area": "Denver / Colorado",
		"city": "Carbondale",
		"country": "US",
		"image_url": "https://www.opentable.com/img/restimages/101422.jpg",
		"mobile_reserve_url": "http://mobile.opentable.com/opentable/?restId=101422",
		"payment_options": [
			"AMEX",
			"Discover",
			"MasterCard",
			"Visa"
		],
		"phone": "9709636328",
		"postal_code": "81623",
		"price": 2,
		"reserve_url": "http://www.opentable.com/single.aspx?rid=101422",
		"state": "CO",
		"_geoloc": {
			"lat": 39.400235,
			"lng": -107.210373
		}
	},
	{
		"objectID": 113494,
		"name": "Plates Kitchen",
		"address": "301 Glenwood Ave",
		"area": "Raleigh / Durham / Chapel Hill",
		"city": "Raleigh",
		"country": "US",
		"image_url": "https://www.opentable.com/img/restimages/113494.jpg",
		"mobile_reserve_url": "http://mobile.opentable.com/opentable/?restId=113494",
		"payment_options": [
			"AMEX",
			"Diners Club",
			"MasterCard",
			"Visa"
		],
		"phone": "9198280018x",
		"postal_code": "27603",
		"price": 2,
		"reserve_url": "http://www.opentable.com/single.aspx?rid=113494",
		"state": "NC",
		"_geoloc": {
			"lat": 35.784585,
			"lng": -78.647982
		}
	},
	{
		"objectID": 113495,
		"name": "Plates Hell",
		"address": "301 Glenwood Ave",
		"area": "Raleigh / Durham / Chapel Hill",
		"city": "Raleigh",
		"country": "US",
		"image_url": "https://www.opentable.com/img/restimages/113494.jpg",
		"mobile_reserve_url": "http://mobile.opentable.com/opentable/?restId=113494",
		"payment_options": [
			"Cash Only"
		],
		"phone": "9198280018x",
		"postal_code": "27603",
		"price": 2,
		"reserve_url": "http://www.opentable.com/single.aspx?rid=113494",
		"state": "NC",
		"_geoloc": {
			"lat": 35.784585,
			"lng": -78.647982
		}
	}
]
